City_ID,City,Country,Max Temp,Current Description,Lat,Lng,Hotel Name
0,Hardoi,IN,82.74,clear sky,27.4167,80.1167,Hotel Rama Palace -Best Hotel /Best Restaurant in Hardoi
1,Adamstown,PN,62.42,light rain,-25.066,-130.1015,Down Alwyn's
3,Bel Ombre,SC,80.44,scattered clouds,-4.6167,55.4167,Coral Strand Smart Choice Hotel
4,Olyokminsk,RU,57.79,few clouds,60.3736,120.4264,"Gostinitsa ""Kolos"""
6,Enewetak,MH,83.59,overcast clouds,11.3474,162.3373,Enewetak Atoll
7,Altamont,US,67.78,haze,42.2068,-121.7372,Microtel Inn & Suites by Wyndham Klamath Falls
10,Badger,US,62.82,broken clouds,64.8,-147.5333,Fairbanks / Chena River KOA
11,Kodiak,US,56.71,scattered clouds,57.79,-152.4072,Best Western Kodiak Inn
12,Yellowknife,CA,78.42,smoke,62.456,-114.3525,The Explorer Hotel
15,Vilyuysk,RU,59.13,few clouds,63.7553,121.6247,Gostinitsa Viliuisk
16,Mugia,ES,71.17,overcast clouds,43.1041,-9.2179,Hotel O Parranda
18,Bredasdorp,ZA,65.16,clear sky,-34.5322,20.0403,Wheatlands Lodge - Bredasdorp
21,Tazacorte,ES,76.17,few clouds,28.629,-17.9293,Valle Aridane
22,Hermanus,ZA,68.7,clear sky,-34.4187,19.2345,Misty Waves Boutique Hotel
23,Belyy Yar,RU,60.69,scattered clouds,53.6039,91.3903,Pasportnyy Stol
24,Tadine,NC,70.3,overcast clouds,-21.55,167.8833,Accueil en tribu chez Aude et Jean
25,Avarua,CK,71.65,few clouds,-21.2078,-159.775,Paradise Inn
26,La Ronge,CA,68.25,smoke,55.1001,-105.2842,Northland Motor Hotel
27,Mount Pearl,CA,72.45,broken clouds,47.5166,-52.7813,Ramada by Wyndham St. John's
30,Bandarbeyla,SO,78.4,overcast clouds,9.4942,50.8122,JABIR HOTEL
31,Caleta De Carquin,PE,71.74,clear sky,-11.0925,-77.6267,Hotel Villa Kitzia Huacho
32,Atafu Village,TK,82.54,broken clouds,-8.5421,-172.5159,Atafu Village
34,Tafuna,AS,78.75,broken clouds,-14.3358,-170.72,Tradewinds Hotel
35,Tobruk,LY,81.91,clear sky,32.0836,23.9764,عقار الحاج منفور علي.
36,College,US,62.8,broken clouds,64.8569,-147.8028,Pike's Waterfront Lodge
37,Porto Torres,IT,71.78,scattered clouds,40.835,8.3972,Hotel Elisa
40,Nchelenge,ZM,76.21,overcast clouds,-9.3451,28.734,KD Travellers Home
42,Bonthe,SL,79.0,light rain,7.5264,-12.505,Bonthe Holiday Village
43,Stanley,GB,58.59,few clouds,54.868,-1.6985,Beamish Hall Hotel
47,Hawaiian Paradise Park,US,78.03,moderate rain,19.5933,-154.9731,Casa by the Sea
48,Qusmuryn,KZ,51.84,broken clouds,52.4503,64.6311,Депоның қонақ үйі
50,Chirala,IN,83.14,few clouds,15.8167,80.35,Bala Residency
56,Bethel,US,79.77,broken clouds,41.3712,-73.414,Courtyard by Marriott Danbury
57,Tiksi,RU,50.58,overcast clouds,71.6872,128.8694,Arktika
58,Portland,US,71.53,overcast clouds,45.5234,-122.6762,Embassy Suites by Hilton Portland Downtown
59,El Granada,US,84.92,haze,37.5027,-122.4694,Beach House Hotel
62,Susuman,RU,51.8,broken clouds,62.7833,148.1667,Susumanzoloto
63,Necochea,AR,60.82,few clouds,-38.5473,-58.7368,Hotel Tres Arroyos
64,Antonio Enes,MZ,72.66,few clouds,-16.2325,39.9086,Guest House HESADA
66,Port Mathurin,MU,72.88,clear sky,-19.6833,63.4167,Ti Pavillon
67,Hasaki,JP,77.31,overcast clouds,35.7333,140.8333,Inubosaki Kanko Hotel
69,Yuzhno-Kurilsk,RU,58.69,scattered clouds,44.0306,145.8556,Guesthouse Berloga
71,Hithadhoo,MV,81.37,broken clouds,-0.6,73.0833,Scoop Guest House
72,Jamestown,US,82.02,scattered clouds,42.097,-79.2353,Hampton Inn & Suites Jamestown
74,Saint-Denis,FR,66.51,light rain,48.9167,2.3333,ibis budget Paris Porte de Montmartre
75,Port Elizabeth,ZA,61.09,clear sky,-33.918,25.5701,39 On Nile Guest House
76,Holualoa,US,78.78,scattered clouds,19.6228,-155.9522,Royal Kona Resort
77,Lebu,CL,51.6,overcast clouds,-37.6167,-73.65,Hosteria Millaneco
78,Udachny,RU,61.47,overcast clouds,66.4167,112.4,Severnoye Siyaniye
79,Taksimo,RU,56.91,clear sky,56.3444,114.8794,"Gostinitsa ""Domashniy Ochag"""
83,St. John'S,CA,73.27,broken clouds,47.5649,-52.7093,Courtyard by Marriott St. John's Newfoundland
87,Happy Valley-Goose Bay,CA,79.11,broken clouds,53.3168,-60.3315,Labrador Inn
88,Galle,LK,78.03,overcast clouds,6.0367,80.217,Amangalla
89,Burgersdorp,ZA,56.14,clear sky,-30.9977,26.3286,DeKat Self Catering
91,Constantia,RO,77.7,clear sky,44.1833,28.65,Maria Hotel
92,Camarinas,ES,71.19,overcast clouds,43.1311,-9.1817,Hotel O Parranda
93,West Island,CC,76.98,broken clouds,-12.1568,96.8225,Cocos Seaview Apartments
95,Lashio,MM,70.23,overcast clouds,22.9333,97.75,Golden Kinnara Hotel
98,Thompson,CA,62.76,scattered clouds,55.7435,-97.8558,Burntwood Hotel
99,Rawlins,US,75.34,clear sky,41.7911,-107.2387,"Holiday Inn Express Rawlins, an IHG Hotel"
100,Nogliki,RU,54.34,overcast clouds,51.8333,143.1667,"Hotel ""Nogliki"""
103,Semporna,MY,80.22,overcast clouds,4.4818,118.6112,"Han Palace Hotel, Semporna, Sabah."
104,Puerto Ayora,EC,84.16,few clouds,-0.7393,-90.3518,Finch Bay Galapagos Hotel
106,Tura,IN,75.36,broken clouds,25.5198,90.2201,Hotel Sundare
107,Turbat,PK,81.36,clear sky,26.0023,63.044,Mubashar Quarters
109,Suntar,RU,59.86,overcast clouds,62.1444,117.6319,Гостевая квартира
110,Tobetsu,JP,72.1,overcast clouds,43.2169,141.5169,富士屋旅館
112,Coquimbo,CL,65.93,clear sky,-29.9533,-71.3436,Hotel San Juan
114,Chibougamau,CA,56.82,light rain,49.9168,-74.3659,Hôtel Motel Nordic
115,Vila Franca Do Campo,PT,75.61,broken clouds,37.7167,-25.4333,Pestana Bahia Praia
116,Hadibu,YE,79.74,scattered clouds,12.65,54.0333,Summer Land Hotel
117,Tsiombe,MG,65.93,few clouds,-25.3,45.4833,Littoral Hôtel
118,Medeiros Neto,BR,78.3,broken clouds,-17.3739,-40.2206,Pousada & Restaurante Visgueira
119,Khandyga,RU,56.73,scattered clouds,62.6667,135.6,Apel'sin
121,Rybnaya Sloboda,RU,55.74,broken clouds,55.4613,50.1409,Гостиница Аяз
122,Nadym,RU,53.04,overcast clouds,65.5333,72.5167,Apartment on Zvereva
123,Ulsan,KR,76.51,light rain,35.5372,129.3167,LOTTE HOTEL ULSAN
125,Arraial Do Cabo,BR,71.56,light intensity drizzle,-22.9661,-42.0278,Pousada Porto Praia
126,Plettenberg Bay,ZA,69.91,clear sky,-34.0527,23.3716,Thanda Vista B&B
128,Ambon,ID,80.87,scattered clouds,-3.6954,128.1814,Swiss-Belhotel Ambon
129,La Passe,FR,64.63,clear sky,45.5549,-0.8967,The Old Customs House
130,Uturoa,PF,77.92,overcast clouds,-16.7333,-151.4333,Villa Tonoï
133,Fale Old Settlement,TK,82.8,scattered clouds,-9.3852,-171.2468,Best hotel in this island
134,Kranuan,TH,79.16,moderate rain,16.7067,103.0788,หอพักพรวิมล
135,Conduaga,PH,79.52,overcast clouds,8.862,117.4893,Canyogan Lodge
136,Soufriere,LC,82.0,light intensity shower rain,13.8562,-61.0566,The Downtown
137,Mersing,MY,76.91,few clouds,2.4312,103.8405,Timotel Hotel
138,Grand Baie,MU,73.87,clear sky,-20.0182,57.5802,Trou aux Biches Beachcomber Golf Resort & Spa
140,Ambalangoda,LK,77.63,overcast clouds,6.2355,80.0538,The Beach Hotel Oasis Bridge
143,Kasimov,RU,57.83,overcast clouds,54.9411,41.3953,Hotel Kasimov
144,Dongyang,CN,71.38,overcast clouds,29.2678,120.2253,Fu Du Hotel
145,Port Alfred,ZA,66.18,clear sky,-33.5906,26.891,The Halyards Hotel & Spa
146,Alofi,NU,67.89,overcast clouds,-19.0595,-169.9187,Taloa Heights
147,Chilca,PE,67.51,scattered clouds,-12.5211,-76.7372,Playa Punta Yaya - Las Salinas
148,Pitimbu,BR,84.79,few clouds,-7.4706,-34.8086,Reserva do Abiaí
151,Namie,JP,76.71,clear sky,37.4833,141.0,いこいの村なみえ(福島県)
153,Keflavik,IS,55.31,broken clouds,64.0049,-22.5624,Hotel Keflavik
154,Bodo,NO,55.44,light rain,67.28,14.405,Clarion Collection Hotel Grand Bodø
155,Cascais,PT,73.26,few clouds,38.6979,-9.4215,Hotel Vila Galé Cascais
156,Labrador City,CA,60.71,light intensity shower rain,52.9463,-66.9114,Northern Inn & Suites
157,Cockburn Town,TC,84.87,overcast clouds,21.4612,-71.1419,Osprey Beach Hotel
158,Georgetown,MY,80.02,scattered clouds,5.4112,100.3354,Cititel Penang
159,Imbituba,BR,68.86,broken clouds,-28.24,-48.6703,Praia Hotel Imbituba
160,Gadzhiyevo,RU,51.37,overcast clouds,69.2551,33.3362,Gostinitsa Oazis G. Gadzhiyevo
162,Kaifeng,CN,69.55,overcast clouds,34.7911,114.3483,Pullman Kaifeng Jianye
163,Wailua Homesteads,US,81.39,light rain,22.0669,-159.378,Wailua Bay View
164,Manismata,ID,71.92,overcast clouds,-2.4667,111.0333,Lusiawati
165,Sretensk,RU,50.36,broken clouds,52.2453,117.7093,"""Shustovskaya"""
166,Tolanaro,MG,64.47,light rain,-25.0319,46.9987,Anja Guest House
168,Dalnerechensk,RU,55.8,heavy intensity rain,45.9339,133.7225,"Royal Cafe, Bar, Hotel"
169,Muisne,EC,80.13,broken clouds,0.6,-80.0333,Quinta Samay
170,Kampong Dungun,MY,79.86,overcast clouds,3.2167,101.3167,Wasalfa Rest House
172,Babayevo,RU,52.83,broken clouds,59.3936,35.9371,Stone Mountain
173,Hamilton,US,82.89,clear sky,39.1834,-84.5333,Six Acres Bed & Breakfast
175,Beloyarskiy,RU,53.38,overcast clouds,63.7119,66.6722,Gostinitsa Karibu
176,Chadan,RU,64.58,overcast clouds,51.2833,91.5833,Zharki
177,Hirara,JP,82.67,scattered clouds,24.8,125.2833,Hotel Atoll Emerald Miyakojima
178,Lompoc,US,80.64,clear sky,34.6391,-120.4579,"Holiday Inn Express Lompoc, an IHG Hotel"
180,Usogorsk,RU,52.02,overcast clouds,63.4106,48.6872,"""Dom Invest - Kvartiry Posutochno"""
181,Basco,PH,81.36,heavy intensity rain,20.4487,121.9702,Nathaniel's Lodge
183,Whitehorse,CA,74.1,scattered clouds,60.7161,-135.0538,The Sternwheeler Hotel & Conference Centre
184,Namibe,AO,68.92,overcast clouds,-15.1961,12.1522,Hotel Chik Chik Namibe
186,Kirakira,SB,76.12,light rain,-10.4544,161.9205,Upper Room Accomodation
187,New Norfolk,AU,50.72,light rain,-42.7826,147.0587,The Shingles Riverside Cottages
188,Sitangkai,PH,83.25,overcast clouds,4.6628,119.3928,Ama House
192,Thunder Bay,CA,60.78,broken clouds,48.4001,-89.3168,Victoria Inn Hotel and Convention Centre
193,Dolores,AR,59.83,broken clouds,-36.3132,-57.6792,Apart Hotel - Arianos
194,Alliance,US,81.48,overcast clouds,40.9153,-81.1059,"Holiday Inn Express & Suites Alliance, an IHG Hotel"
196,Sitka,US,60.69,light rain,57.0531,-135.33,Westmark Sitka
197,Sovetskaya Gavan',RU,58.14,light rain,48.9723,140.2878,"Хостел ""Пилигрим"""
202,Tianpeng,CN,69.21,overcast clouds,30.9866,103.9393,Shuangliu Love Home Business Hotel
203,Acarau,BR,84.25,clear sky,-2.8856,-40.12,castelo pizzaria
204,Amga,RU,56.79,clear sky,60.8953,131.9608,Algys
205,Franklin,US,81.57,broken clouds,39.9667,-83.0166,Courtyard by Marriott Columbus Downtown
206,Odessa,UA,79.29,clear sky,46.4775,30.7326,Londonskaya Hotel
211,Nishinoomote,JP,81.93,clear sky,30.7333,131.0,Hotel Lexton Tanegashima
215,Plesetsk,RU,52.86,overcast clouds,62.708,40.2916,Medvedov Guest House
216,Coronel Dorrego,AR,65.19,clear sky,-38.7187,-61.2873,Hotel America
217,Kilindoni,TZ,76.15,clear sky,-7.9139,39.6668,Bustani B&B
218,Jitra,MY,76.89,scattered clouds,6.2681,100.4217,Hotel Darulaman
220,Isafjordur,IS,50.04,scattered clouds,66.0755,-23.124,Hótel Horn
223,Nuku'Alofa,TO,71.13,overcast clouds,-21.1333,-175.2,Little Italy Hotel
225,Brad,RO,66.11,moderate rain,46.1333,22.7833,Juliana Ball Room
227,Axim,GH,76.21,few clouds,4.8699,-2.2405,Axim Beach Resort And Spa
228,Conception Bay South,CA,73.04,overcast clouds,47.4999,-52.9981,Newfound Inn & Suites
230,Belo Sur Tsiribihina,MG,72.09,scattered clouds,-19.7,44.55,Hotel Restaurant du Menabe
232,Lorengau,PG,79.72,overcast clouds,-2.0226,147.2712,Harbourside Hotel Limited
233,Klyuchi,RU,60.37,clear sky,52.2667,79.1667,Vesolaya Mayovka
234,Castillos,UY,59.34,broken clouds,-34.1667,-53.8333,HOTEL A MI GENTE
235,Pingliang,CN,60.73,clear sky,35.5392,106.6861,North Gate Hostel
237,Hobyo,SO,77.68,scattered clouds,5.3505,48.5268,Halane Hotel and Restaurent
238,Takoradi,GH,76.17,few clouds,4.8845,-1.7554,Raybow International Hotel
239,Broken Hill,AU,60.67,overcast clouds,-31.95,141.4333,Royal Exchange Hotel
241,Carnarvon,AU,67.59,clear sky,-24.8667,113.6333,Hospitality Carnarvon
242,Sokur,RU,53.96,clear sky,55.2093,83.319,Gostinitsa Svetlana
244,Nova Sintra,CV,75.29,broken clouds,14.8667,-24.7167,Hotel Pousada Nova Sintra
245,Inowroclaw,PL,63.55,overcast clouds,52.7989,18.2639,Pod Tężnią
248,Ulladulla,AU,54.61,overcast clouds,-35.35,150.4667,Sandpiper Motel
249,Kapa'A,US,82.72,light rain,22.0752,-159.319,Sheraton Kauai Coconut Beach Resort
252,Arno,SE,61.79,overcast clouds,60.1167,18.6333,Haga Gård och stall
253,Pyay,MM,76.01,overcast clouds,18.8167,95.2167,Shwe Pyi Thar
255,Guilin,CN,71.71,few clouds,25.2819,110.2864,Grand 0773 Hotel
256,Ribeira Grande,PT,75.6,scattered clouds,38.5167,-28.7,Quinta da Meia Eira
257,Calama,CL,77.49,clear sky,-22.4667,-68.9333,Park Hotel Calama
259,Colonia,DE,65.97,clear sky,50.9333,6.95,Mauritius Hotel & Therme
260,Mandal,IN,75.33,clear sky,25.45,74.5667,Surpanch saab ki vatika
261,Ayancik,TR,75.29,few clouds,41.9447,34.5861,Yavuzlar Otel
262,Armacao De Buzios,BR,71.76,light rain,-22.7469,-41.8817,Hotel Don Quijote
263,Prado,BR,79.92,overcast clouds,-17.3411,-39.2208,INN CORNER RIVER - PRADO - BAHIA - HOUSING AND HOTEL
264,Laascaanood,SO,79.7,few clouds,8.4774,47.3597,Xaafada xassan hurre
265,Kailua-Kona,US,82.51,scattered clouds,19.6406,-155.9956,Kona Seaside Hotel
266,Byerazino,BY,69.67,overcast clouds,53.8391,28.9879,Усадьба VARVAR
268,Bedesa,ET,64.87,light rain,8.9,40.7833,Huzefa Adam
269,Lihue,US,81.99,light rain,21.9789,-159.3672,The Royal Sonesta Kaua'i Resort Lihue
270,Shibirghan,AF,79.95,clear sky,36.6676,65.7529,Shibirghan Municipality Hotel
271,Mocimboa,MZ,74.77,broken clouds,-11.3167,40.35,Chez Natalie Bush & Beach Lodge
272,Lalibela,ET,58.8,light rain,12.0333,39.0333,Honey Land Hotel Lalibela
273,Queenstown,ZA,60.93,clear sky,-31.8976,26.8753,Courtyard Lodging
274,Lata,PT,68.07,scattered clouds,40.1629,-8.3327,Terraços da Beira
275,Sittwe,MM,80.62,light rain,20.15,92.9,ဟိုတယ် မန်မိုရီ - Hotel Memory
276,Kavieng,PG,80.47,overcast clouds,-2.5744,150.7967,Nusa Island Retreat
277,Heyuan,CN,74.43,overcast clouds,23.7333,114.6833,Yanjiang Tourism Industry
278,Kholmsk,RU,57.38,overcast clouds,47.0511,142.0569,GH Hotel
279,Urengoy,RU,52.09,light rain,65.9667,78.3667,Gostinnitsa Medveditsa
280,Touros,BR,82.04,clear sky,-5.1989,-35.4608,INN NEW HORIZON
281,Port Lincoln,AU,54.99,scattered clouds,-34.7333,135.8667,Port Lincoln Hotel
283,Sinabang,ID,77.7,heavy intensity rain,2.4803,96.3801,Losmen Sukma Raya
284,Dongsheng,CN,60.76,clear sky,39.8161,109.9776,Crowne Plaza Ordos
285,Bengkulu,ID,73.36,overcast clouds,-3.8004,102.2655,Grage Hotel Bengkulu
286,Kwang Binh,VN,79.66,moderate rain,17.4833,106.6,Nam Long Hotel
291,Mermoz Boabab,SN,82.96,overcast clouds,14.7065,-17.4758,Hotel Terrou-Bi
292,Senahu,GT,78.19,light rain,15.4,-89.8333,"Casserio Se'soch, Senahuq A.V"
293,Shingu,JP,77.31,moderate rain,33.7333,135.9833,Shingu UI Hotel
294,Fethiye,TR,78.67,clear sky,36.6217,29.1164,Club & Hotel Letoonia
295,Praia Da Vitoria,PT,77.76,few clouds,38.7333,-27.0667,Hotel Branco I
296,Zugdidi,GE,68.54,light rain,42.5088,41.8709,Guest House at Bagrationi Street
297,Vila Velha,BR,75.15,light rain,-20.3297,-40.2925,Hotel Vitória Palace
298,Tarawa,KI,84.29,broken clouds,1.419,172.984,Mundara
300,Hotan,CN,73.04,clear sky,37.0997,79.9269,Hotan Talimu Hotel
301,Fauske,NO,55.44,light rain,67.2588,15.3918,Scandic Fauske
302,Presidente Epitacio,BR,73.94,overcast clouds,-21.7633,-52.1156,Hotel Itaverá
303,Belmonte,BR,73.72,overcast clouds,-15.8631,-38.8828,Pousada Monte Carmelo O Pão
304,Meiganga,CM,65.91,overcast clouds,6.5167,14.3,DFR HOUSE
305,Afaahiti,PF,78.67,overcast clouds,-17.75,-149.2833,Villa ManaOra
306,Yima,CN,67.71,clear sky,34.7381,111.8839,Yima Hotel
308,Skovorodino,RU,53.28,overcast clouds,53.9833,123.9167,Amur
310,Sechura,PE,82.35,clear sky,-5.5569,-80.8222,Hospedaje Costa Bella
311,San Julian,MX,76.33,overcast clouds,21.0167,-102.1667,La Nueva España
313,Amos,CA,53.08,overcast clouds,48.5669,-78.1162,Amosphère Resort
314,Taro,ID,71.6,broken clouds,-8.3862,115.28,Elephant Safari Park Lodge Bali
315,Nouadhibou,MR,82.38,broken clouds,20.931,-17.0347,El Medina
316,Callao,PE,71.89,broken clouds,-12.0667,-77.15,Amara Hotel
317,Vikhorevka,RU,62.19,scattered clouds,56.1201,101.1636,Pansionat Sosnovyye Rodniki
318,Korla,CN,78.98,overcast clouds,41.7597,86.1469,Gulisitan Hotel
319,Ocean Shores,US,71.38,overcast clouds,46.9737,-124.1563,"BayVue Hotel, Resort & Suites"
320,Nizhneangarsk,RU,58.73,overcast clouds,55.7833,109.55,Хостел
322,Catumbela,AO,72.52,overcast clouds,-12.4314,13.5472,Hotel Do Kamgamba
324,Egilsstadir,IS,55.31,broken clouds,65.2653,-14.3948,Hotel Eyvindará
326,Aldinga Beach,AU,57.43,overcast clouds,-35.2793,138.4604,Anchor Cottage
328,Buka,UZ,73.58,clear sky,40.8108,69.1986,Abdullayev Faxriddin21
329,Ust-Nera,RU,55.98,broken clouds,64.5667,143.2,Hotel Ust-Nera
330,Sadovoye,RU,63.55,clear sky,47.7764,44.5089,Putnik
332,Narvik,NO,58.39,overcast clouds,68.4384,17.4272,Breidablikk Guesthouse
334,Sorong,ID,78.33,moderate rain,-0.8833,131.25,Waigo Splash Hotel
335,Geraldton,AU,54.01,clear sky,-28.7667,114.6,Broadwater Mariner Resort
336,Romanovskaya,RU,63.66,clear sky,47.5426,42.0285,Donskaya Volna
338,Nabire,ID,75.94,overcast clouds,-3.3667,135.4833,Hotel Nusantara I
339,Bhadravati,IN,70.57,broken clouds,13.8667,75.7167,OYO 24245 Dv Residency
340,Pisco,PE,69.85,overcast clouds,-13.7,-76.2167,Hotel San Isidro Oficial
342,Konakovo,RU,53.38,overcast clouds,56.7,36.7667,Konakovo hotel
344,Kuvshinovo,RU,54.86,scattered clouds,57.0295,34.1725,Каменка
346,Hell-Ville,MG,78.3,light rain,-13.4,48.2667,Chez Nirina
347,General Conesa,AR,63.99,overcast clouds,-40.1,-64.4333,HOTEL DOBRA-NICH
348,Vadso,NO,51.96,broken clouds,70.0744,29.7487,Scandic Vadsø
349,Luau,AO,73.69,overcast clouds,-10.7073,22.2247,Kimbo Hotel
350,Sol'Tsy,RU,59.77,overcast clouds,58.1239,30.3238,Otel'-Soltsy
351,Launceston,AU,55.35,overcast clouds,-41.45,147.1667,Hotel Grand Chancellor Launceston
355,Januaria,BR,84.27,overcast clouds,-15.4833,-44.3667,Hotel Paraguassu
357,Selfoss,IS,56.05,broken clouds,63.9331,-20.9971,Ljósafossskóli - Hostel
358,Quthing,LS,56.53,clear sky,-30.4,27.7003,Mountainside Hotel
359,Stung Treng,KH,73.81,moderate rain,13.5259,105.9683,សណ្ឋាគារ​ទន្លេ​មាស
360,Kiama,AU,55.45,overcast clouds,-34.6833,150.8667,The Sebel Kiama
362,Sotkamo,FI,55.42,clear sky,64.1333,28.4167,Hotel Tulikettu
363,El Nido,PH,81.23,moderate rain,11.1858,119.3956,Stunning Republic Beach Resort
364,Ust'-Ilimsk,RU,62.78,clear sky,58.0006,102.6619,AleNat Center
365,Muli,MV,82.78,overcast clouds,2.9167,73.5667,Medhufushi Island Resort
366,Freetown,SL,80.31,light rain,8.484,-13.2299,The Country Lodge Hotel
367,Daru,PG,74.35,scattered clouds,-9.0763,143.2092,Daru Lodge
370,Tokmok,KG,67.42,clear sky,42.8417,75.3016,Jibek Hotel
371,Uzgen,KG,61.09,clear sky,40.7699,73.3007,Hotel Konurat
372,Luanda,AO,71.6,few clouds,-8.8368,13.2343,EPIC SANA Luanda Hotel
373,Nova Vicosa,BR,77.67,light rain,-17.8919,-39.3719,Pousada Porto do Sol
374,Nemuro,JP,60.1,overcast clouds,43.3236,145.575,Hotel Nemuro Kaiyoutei
375,Knyaze-Volkonskoye,RU,62.94,overcast clouds,48.4642,135.4567,Obshchezhitiye
376,Chingirlau,KZ,57.15,overcast clouds,51.095,54.0814,Хостыл Аққу
377,Jiuquan,CN,67.03,overcast clouds,39.7432,98.5174,Jiuquan Hotel
379,Yanam,IN,79.63,few clouds,16.7333,82.2167,The Regency Hotel
381,Woolgoolga,AU,54.05,clear sky,-30.1106,153.2007,Rosebourne Gardens Motel
382,Hovd,MN,73.53,overcast clouds,48.0056,91.6419,Hotel Buyant
383,Vettweiss,DE,64.76,broken clouds,50.7333,6.6,Familie Schwecht
384,Ruovesi,FI,60.98,overcast clouds,61.9858,24.0571,Haapasaaren lomakylä
385,Yaren,NR,83.35,overcast clouds,-0.5472,166.916,Menen Hotel
388,Nha Trang,VN,82.4,overcast clouds,12.25,109.1833,Sea Light
389,Mossel Bay,ZA,73.33,clear sky,-34.1831,22.146,The Point Hotel & SPA
390,Shenjiamen,CN,78.26,broken clouds,29.9576,122.298,Jinjiang Inn Zhoushan Putuo Shenjiamen
391,Saint-Philippe,RE,72.99,light rain,-21.3585,55.7679,Le four à pain
392,Anaconda,US,79.79,clear sky,46.1285,-112.9423,Trade Wind Motel
393,East London,ZA,63.54,clear sky,-33.0153,27.9116,Tu Casa
394,Katsuura,JP,79.34,broken clouds,35.1333,140.3,Katsuura Hotel Mikazuki
395,Flying Fish Cove,CX,74.88,overcast clouds,-10.4217,105.6791,VQ3 Lodge
397,Yardimli,AZ,60.93,overcast clouds,38.9206,48.2372,Yolocaq
398,Mar Del Plata,AR,59.95,clear sky,-38.0023,-57.5575,Gran Hotel Mar del Plata
400,Bikenibeu Village,KI,84.16,broken clouds,1.3673,173.1241,Tobaraoi
402,Kayangel,PW,82.49,overcast clouds,8.0823,134.7173,Ungilreng's Rental Home
403,Asau,RO,79.72,broken clouds,46.4333,26.4,Casa Mika Ciobanus
404,Villa Gesell,AR,58.05,overcast clouds,-37.2639,-56.973,Hotel Bella Vista
406,Tamanrasset,DZ,82.31,scattered clouds,22.785,5.5228,Complexe Tourisque Bois Pétrifié
407,Hammerfest,NO,54.05,moderate rain,70.6634,23.6821,Skytterhuset
408,Wuwei,CN,64.89,clear sky,37.9281,102.6414,Thank Inn Chain Hotel gansu wuwei liangzhou district xiguan middle road
409,Tshabong,BW,60.89,clear sky,-26.05,22.45,Garden View
410,Zhezqazghan,KZ,62.02,overcast clouds,47.7833,67.7667,Cosmos
413,Sandnessjoen,NO,55.92,light rain,66.0217,12.6316,Syv Søstre Apartments
414,Neiafu,TO,73.92,overcast clouds,-18.65,-173.9833,Mystic Sands Beachfront Accommodation
415,Podebrady,CZ,59.49,overcast clouds,50.1424,15.1188,Spa Hotel Felicitas
416,Ketchikan,US,63.07,haze,55.3422,-131.6461,Snow's Cove Lodge
417,Portage La Prairie,CA,62.69,overcast clouds,49.9728,-98.2926,Howard Johnson by Wyndham Portage La Prairie
418,Verkhnevilyuysk,RU,59.32,broken clouds,63.4453,120.3167,Gostinitsa Mila
419,Kenai,US,57.15,clear sky,60.5544,-151.2583,Aspen Extended Stay Suites
421,Thaton,MM,77.38,overcast clouds,16.9206,97.3714,"Shwe Pyi Soe Guest House, Thaton"
422,Manokwari,ID,79.02,overcast clouds,-0.8667,134.0833,Swiss Belhotel Manokwari
423,Porto Novo,BJ,78.62,clear sky,6.4965,2.6036,Tour Eiffel Hotel Benin
424,Abaza,RU,55.42,light rain,52.655,90.0928,Гостевой дом «Кедровый»
425,Deschutes River Woods,US,68.94,haze,43.9915,-121.3584,Tetherow
426,Bridgewater,CA,72.68,overcast clouds,44.3835,-64.5155,Comfort Inn
428,Jinxiang,CN,78.73,overcast clouds,27.4327,120.6062,Wolong Village
430,Yermakovskoye,RU,59.86,overcast clouds,53.2831,92.4003,"Oya, Gostinitsa"
432,Cidreira,BR,59.92,clear sky,-30.1811,-50.2056,Hotel Castelo
433,Jangaon,IN,76.55,clear sky,17.7167,79.1833,Gabbeta real estate
434,Saint-Joseph,RE,71.98,light rain,-21.3667,55.6167,"""Plantation Bed and Breakfast"
435,Krasnokamensk,RU,54.82,broken clouds,50.0979,118.0369,Tsentral'naya
437,Saipan,MP,79.5,overcast clouds,15.1355,145.701,Surfrider Resort Hotel
438,Siavonga,ZM,69.4,clear sky,-16.5382,28.7088,Lavongora Waterfront Lodge
439,General Acha,AR,67.24,overcast clouds,-37.377,-64.6043,Hotel Anay Ruca
440,Khanty-Mansiysk,RU,53.71,few clouds,61.0042,69.0019,Hotel Kristall
441,Beledweyne,SO,81.14,broken clouds,4.7358,45.2036,Hotel Madiina beledweyn
442,Horta,PT,74.84,scattered clouds,38.5333,-28.6333,Hotel do Canal
443,Weno,FM,80.55,moderate rain,7.4515,151.8468,Kurassa Hotel
445,Quelimane,MZ,66.15,shower rain,-17.8786,36.8883,Hotel Flamingo
449,Port Blair,IN,78.84,broken clouds,11.6667,92.75,"Welcomhotel By ITC Hotels, Port Blair - Premium Hotel Near the Airport | Idyllic Island Experience Vacation"
451,Willowmore,ZA,63.75,clear sky,-33.2926,23.4895,Jumper's Place
452,Hudson,US,82.98,overcast clouds,40.7168,-74.0663,Ramada by Wyndham Jersey City
453,Bou Arkoub,TN,76.23,broken clouds,36.5385,10.5509,huilerie et mise en bouteille al rajhi et ferjani
454,Arakli,TR,78.89,few clouds,40.9385,40.0584,Ferah Hotel
456,Cabedelo,BR,84.87,clear sky,-6.9811,-34.8339,Pousada Camboinha
457,Palmi,IT,75.85,scattered clouds,38.3653,15.8615,Hotel Residence Arcobaleno
458,Onega,RU,53.46,few clouds,63.9061,38.1404,Lunny Kot Guest House
459,Casino,AU,54.57,clear sky,-28.8667,153.05,Squatters Homestead Motel
460,Birjand,IR,81.07,clear sky,32.8663,59.2211,Birjand Tourist Hotel
461,Kota Kinabalu,MY,76.98,few clouds,5.9749,116.0724,Gaya Centre Hotel
463,Rio Grande,BR,68.11,clear sky,-32.035,-52.0986,Hotel Atlântico Rio Grande
465,Huarmey,PE,74.57,clear sky,-10.0681,-78.1522,Hotel Miramar
466,Santiago De Cao,PE,73.53,fog,-7.9589,-79.2392,Casa de la tía
467,North Bend,US,75.92,overcast clouds,43.4065,-124.2243,Red Lion Hotel Coos Bay
470,Katoya,IN,84.45,overcast clouds,23.65,88.1333,VetaraPara
471,Dakhla,EH,75.22,clear sky,23.6848,-15.958,Annexe Bougouffa
472,Port Saint John'S,ZA,66.24,clear sky,-31.6229,29.5448,Amapondo Backpackers
473,Taltal,CL,66.85,few clouds,-25.4,-70.4833,Residencial Karime
474,Menongue,AO,65.95,clear sky,-14.6585,17.691,Ritz Lauca
475,Cole Harbour,CA,70.99,overcast clouds,44.6724,-63.4751,The Fairfield
476,Bernay,FR,60.69,overcast clouds,49.1667,0.6667,le logis de brionne
479,Morondava,MG,73.2,light rain,-20.2833,44.2833,La Case Bambou
481,Prince Rupert,CA,64.49,overcast clouds,54.3161,-130.3201,Crest Hotel
482,Dampit,ID,65.5,scattered clouds,-8.2116,112.7493,Kos Bu Heny
483,Letlhakeng,BW,56.19,scattered clouds,-24.0944,25.0298,.
484,Piti Village,GU,77.31,clear sky,13.4626,144.6933,McFerran Residence
485,Khovd,MN,73.53,overcast clouds,48.0056,91.6419,Hotel Buyant
486,Rafah,PS,80.58,clear sky,31.287,34.2595,هشام قطوم
487,Kununurra,AU,60.78,broken clouds,-15.7667,128.7333,Hotel Kununurra
489,Yaval,IN,76.46,clear sky,21.1667,75.7,Hotel Jalsa
490,Loralai,PK,77.13,clear sky,30.3705,68.598,Saddam Hotel & Resturant
492,Yinchuan,CN,70.43,clear sky,38.4681,106.2731,JJ Inns - Yinchuan New Moon Square Branch
493,Raduzhny,RU,53.4,overcast clouds,62.0961,77.475,Gostiny Dvor Evgeniya
494,Puerto La Cruz,VE,83.68,light rain,10.2167,-64.6167,Hotel Colon S.R.L
495,Soio,AO,72.66,overcast clouds,-6.1349,12.3689,Hospedaria ndozi'ame
496,Nowa Deba,PL,72.84,heavy intensity rain,50.4297,21.7508,Restauracja i Hotel Dębianka wesela & przyjęcia
497,Shiraz,IR,81.84,clear sky,29.6036,52.5388,Shams Hotel
498,Batticaloa,LK,80.71,overcast clouds,7.7102,81.6924,Treatooo Hotel
499,Bandar Lampung,ID,72.77,overcast clouds,-5.4254,105.258,Hotel Anugerah Express Lampung
502,Santa Fe,AR,73.99,clear sky,-31.6333,-60.7,Conquistador Hotel
503,Chernyshevskiy,RU,57.9,scattered clouds,63.0128,112.4714,Chernyseyskiy
504,Sassnitz,DE,60.8,overcast clouds,54.5167,13.65,Kurhotel Sassnitz
505,Salatiga,ID,72.19,scattered clouds,-7.3319,110.4928,Hotel Le Beringin
506,Howard Springs,AU,67.91,clear sky,-12.497,131.047,BIG4 Howard Springs Holiday Park
509,Claveria,PH,80.6,heavy intensity rain,18.6074,121.0832,Casa Grand Inn By The Sea
511,Phan Rang-Thap Cham,VN,79.48,overcast clouds,11.5667,108.9833,Anh Dao Hotel
513,Harper,LR,76.57,overcast clouds,4.375,-7.7169,Screensaver
514,Broome,US,77.09,overcast clouds,42.2506,-75.833,Chenango Valley State Park
515,Clarion,US,81.18,overcast clouds,41.2148,-79.3853,Hampton Inn Clarion
516,Charters Towers,AU,56.03,clear sky,-20.1,146.2667,Cattleman's Rest Motor Inn
517,Inhambane,MZ,66.18,light rain,-23.865,35.3833,Oceano
518,Richards Bay,ZA,65.64,clear sky,-28.783,32.0377,BON Hotel Waterfront Richards Bay
519,Saudarkrokur,IS,51.87,few clouds,65.7461,-19.6394,Arctic Hotels - Hótel Tindastóll & Annex
522,Mumford,GH,76.26,few clouds,5.2618,-0.759,Peace Guest House
523,San Martin,AR,68.54,clear sky,-33.081,-68.4681,Finca Vivencias
524,Phan Thiet,VN,78.69,light rain,10.9333,108.1,Hotel Saigon-PT
525,Korem,ET,55.26,moderate rain,12.5058,39.5228,Lakomeliza Hotel
526,Zirc,HU,57.69,light rain,47.2636,17.8737,Hotel Szarvaskút és Kemencés Étterem
528,Hailar,CN,55.9,overcast clouds,49.2,119.7,Holiday Inn & Suites Hulunbuir
529,Staryy Sambir,UA,67.03,overcast clouds,49.4386,23.0006,Saltzbork
531,Gambela,ET,78.93,overcast clouds,8.25,34.5833,Solomon Debebe Hotel
532,Clorinda,AR,82.56,broken clouds,-25.2848,-57.7185,Saint Martin Residential
